time_ms,temp_cC,pressPa,mag_x,mag_y,mag_z,accel_x,accel_y,accel_z,gyro_x,gyro_y,gyro_z,latitude,longitude,flags_raw,flag_armed,flag_gps_fix,flag_altitude_hold,flag_battery_low,flag_sensor_error,flag_recovery_mode,flag_data_logging,flag_telemetry_active,timestamp,time_s,altitude,accel_total,mag_total,speed,temperature,battery_voltage,rssi,roll,pitch,yaw
0,25.000000,193281,45,-329,-114,469,993,387,-170.400000,123.000000,-81.400000,-51.618382,37.617600,22,False,True,True,False,True,False,False,False,1970-01-01 00:00:00,0.000000,-5796.830300,1.164379,351.086884,0.000000,25.000000,7.350000,-100,68.707740,-23.125794,-82.211521
100,25.000000,193281,-328,188,247,-458,-1269,714,-164.900000,53.300000,17.800000,-51.618382,37.617600,22,False,True,True,False,True,False,False,False,1970-01-01 00:01:40,0.100000,-5796.830300,1.526408,451.593844,0.000000,25.000000,7.350000,-100,-60.635816,18.751350,150.179927
200,25.000000,193281,462,176,-427,1747,-804,-1190,69.500000,50.200000,-80.600000,-51.618382,37.617600,22,False,True,True,False,True,False,False,False,1970-01-01 00:03:20,0.200000,-5796.830300,2.261532,653.260285,0.000000,25.000000,7.350000,-100,-145.955850,-42.252492,20.854458
300,25.000000,193281,-401,444,172,-1595,-567,241,16.400000,77.300000,-91.700000,-51.618382,37.617600,22,False,True,True,False,True,False,False,False,1970-01-01 00:05:00,0.300000,-5796.830300,1.709852,622.511847,0.000000,25.000000,7.350000,-100,-66.972368,43.296452,132.086870
400,25.000000,193281,366,333,-168,-1990,1433,-1742,45.000000,-26.100000,87.400000,-51.618382,37.617600,22,False,True,True,False,True,False,False,False,1970-01-01 00:06:40,0.400000,-5796.830300,3.008015,522.560044,0.000000,25.000000,7.350000,-100,140.558682,39.059180,42.297056
500,25.000000,193281,-250,215,288,1063,140,-1668,-178.300000,-142.300000,-179.100000,-51.618382,37.617600,22,False,True,True,False,True,False,False,False,1970-01-01 00:08:20,0.500000,-5796.830300,1.982875,437.800183,0.000000,25.000000,7.350000,-100,175.202247,-44.753676,139.304469
600,25.000000,193281,3,189,415,345,1956,1430,-159.300000,-118.600000,56.700000,-51.618382,37.617600,22,False,True,True,False,True,False,False,False,1970-01-01 00:10:00,0.600000,-5796.830300,2.447419,456.020833,0.000000,25.000000,7.350000,-100,53.830065,-9.853912,89.090620
700,25.000000,193281,64,-94,263,1758,-636,1174,-166.200000,-144.200000,27.400000,-51.618382,37.617600,22,False,True,True,False,True,False,False,False,1970-01-01 00:11:40,0.700000,-5796.830300,2.207563,286.532721,0.000000,25.000000,7.350000,-100,-28.446073,-43.239308,-55.750967
800,25.000000,193281,-443,151,-70,-1615,-1204,-1752,112.000000,-62.500000,-71.500000,-51.618382,37.617600,22,False,True,True,False,True,False,False,False,1970-01-01 00:13:20,0.800000,-5796.830300,2.669709,473.233558,0.000000,25.000000,7.350000,-100,-145.502582,38.719996,161.177923
900,25.000000,193281,-461,-128,98,401,-367,-1324,-20.100000,63.300000,-113.300000,-51.618382,37.617600,22,False,True,True,False,True,False,False,False,1970-01-01 00:15:00,0.900000,-5796.830300,1.431246,488.373832,0.000000,25.000000,7.350000,-100,-164.507141,-36.415767,-164.482299
1000,25.000000,193281,-479,35,484,-183,832,-1158,-52.700000,52.800000,-137.600000,-51.618382,37.617600,22,False,True,True,False,True,False,False,False,1970-01-01 00:16:40,1.000000,-5796.830300,1.437594,681.851890,0.000000,25.000000,7.350000,-100,144.303505,12.123858,175.820888
1100,25.000000,193281,367,389,8,-189,-820,-933,7.300000,-32.400000,-174.700000,-51.618382,37.617600,22,False,True,True,False,True,False,False,False,1970-01-01 00:18:20,1.100000,-5796.830300,1.256427,534.858860,0.000000,25.000000,7.350000,-100,-138.688236,12.658520,46.666867
1200,25.000000,193281,334,391,430,369,-819,1067,-125.400000,88.600000,176.400000,-51.618382,37.617600,22,False,True,True,False,True,False,False,False,1970-01-01 00:20:00,1.200000,-5796.830300,1.394780,670.326040,0.000000,25.000000,7.350000,-100,-37.508858,-22.331938,49.495387
1300,25.000000,193281,-418,393,-22,-429,-659,908,-62.000000,-85.400000,101.400000,-51.618382,37.617600,22,False,True,True,False,True,False,False,False,1970-01-01 00:21:40,1.300000,-5796.830300,1.201160,574.157644,0.000000,25.000000,7.350000,-100,-35.971054,28.615528,136.765649
1400,25.000000,193281,-181,469,237,-1417,-92,-1632,114.200000,17.900000,-35.200000,-51.618382,37.617600,22,False,True,True,False,True,False,False,False,1970-01-01 00:23:20,1.400000,-5796.830300,2.163279,555.779633,0.000000,25.000000,7.350000,-100,-176.773506,44.939746,111.102973
1500,25.000000,193281,259,-215,101,1238,-329,-1696,129.900000,-64.800000,-77.200000,-51.618382,37.617600,22,False,True,True,False,True,False,False,False,1970-01-01 00:25:00,1.500000,-5796.830300,2.125394,351.435627,0.000000,25.000000,7.350000,-100,-169.021780,-44.022704,-39.696602
1600,25.000000,193281,-86,108,408,-727,1189,-293,96.700000,84.900000,19.900000,-51.618382,37.617600,22,False,True,True,False,True,False,False,False,1970-01-01 00:26:40,1.600000,-5796.830300,1.424113,430.724970,0.000000,25.000000,7.350000,-100,103.843329,27.548940,128.530180
1700,25.000000,193281,1,-294,191,378,180,-1228,14.900000,-44.200000,95.600000,-51.618382,37.617600,22,False,True,True,False,True,False,False,False,1970-01-01 00:28:20,1.700000,-5796.830300,1.297408,350.596634,0.000000,25.000000,7.350000,-100,171.660981,-42.077634,-89.805117
1800,25.000000,193281,331,-113,-55,550,131,660,45.100000,131.100000,-17.000000,-51.618382,37.617600,22,False,True,True,False,True,False,False,False,1970-01-01 00:30:00,1.800000,-5796.830300,0.869058,354.055080,0.000000,25.000000,7.350000,-100,11.226435,-44.209708,-18.849378
1900,25.000000,193281,-111,100,410,1622,1265,1333,125.800000,-143.900000,-171.500000,-51.618382,37.617600,22,False,True,True,False,True,False,False,False,1970-01-01 00:31:40,1.900000,-5796.830300,2.451122,436.372547,0.000000,25.000000,7.350000,-100,43.500684,-38.257193,137.984282
2000,25.000000,193281,-29,-363,6,321,226,1724,-168.000000,3.300000,-146.300000,-51.618382,37.617600,22,False,True,True,False,True,False,False,False,1970-01-01 00:33:20,2.000000,-5796.830300,1.768133,364.205986,0.000000,25.000000,7.350000,-100,7.468345,-39.271946,-94.567648
2100,25.000000,193281,-303,491,-117,-1537,-1184,-1038,-118.800000,34.000000,0.700000,-51.618382,37.617600,22,False,True,True,False,True,False,False,False,1970-01-01 00:35:00,2.100000,-5796.830300,2.200379,588.709606,0.000000,25.000000,7.350000,-100,-131.240695,38.386345,121.679065
2200,25.000000,193281,114,-29,282,433,1335,1712,-110.500000,-160.300000,111.400000,-51.618382,37.617600,22,False,True,True,False,True,False,False,False,1970-01-01 00:36:40,2.200000,-5796.830300,2.213743,305.550323,0.000000,25.000000,7.350000,-100,37.946739,-17.146152,-14.272513
2300,25.000000,193281,-83,473,-442,244,1645,-753,120.700000,107.500000,90.600000,-51.618382,37.617600,22,False,True,True,False,True,False,False,False,1970-01-01 00:38:20,2.300000,-5796.830300,1.825533,652.672966,0.000000,25.000000,7.350000,-100,114.595974,-8.347051,99.952688
2400,25.000000,193281,-404,-399,-304,-786,248,524,-178.500000,-62.200000,94.500000,-51.618382,37.617600,22,False,True,True,False,True,False,False,False,1970-01-01 00:40:00,2.400000,-5796.830300,0.976666,644.075306,0.000000,25.000000,7.350000,-100,25.327372,43.641102,-135.356756
2500,25.000000,193281,-309,153,169,-1213,1298,-1105,-35.800000,-140.500000,176.200000,-51.618382,37.617600,22,False,True,True,False,True,False,False,False,1970-01-01 00:41:40,2.500000,-5796.830300,2.092175,383.993490,0.000000,25.000000,7.350000,-100,130.408073,34.324456,153.657888
2600,25.000000,193281,-99,137,50,-1295,-1084,-1948,-121.000000,-111.800000,62.300000,-51.618382,37.617600,22,False,True,True,False,True,False,False,False,1970-01-01 00:43:20,2.600000,-5796.830300,2.578136,176.266843,0.000000,25.000000,7.350000,-100,-150.905455,37.481420,125.852920
2700,25.000000,193281,152,-225,-274,-378,1812,-1700,9.500000,-87.400000,143.000000,-51.618382,37.617600,22,False,True,True,False,True,False,False,False,1970-01-01 00:45:00,2.700000,-5796.830300,2.513211,385.752511,0.000000,25.000000,7.350000,-100,133.173419,11.541854,-55.958788
2800,25.000000,193281,-378,-498,-175,-37,-847,520,-65.900000,-19.900000,-87.500000,-51.618382,37.617600,22,False,True,True,False,True,False,False,False,1970-01-01 00:46:40,2.800000,-5796.830300,0.994574,649.240325,0.000000,25.000000,7.350000,-100,-58.452924,2.498915,-127.199812
2900,25.000000,193281,7,123,-81,-841,1392,-1824,-52.600000,10.800000,-122.500000,-51.618382,37.617600,22,False,True,True,False,True,False,False,False,1970-01-01 00:48:20,2.900000,-5796.830300,2.443751,147.441514,0.000000,25.000000,7.350000,-100,142.650651,27.344192,86.742778
3000,25.000000,193281,-22,-238,311,-734,-1127,839,79.000000,100.800000,40.800000,-51.618382,37.617600,22,False,True,True,False,True,False,False,False,1970-01-01 00:50:00,3.000000,-5796.830300,1.585183,392.235898,0.000000,25.000000,7.350000,-100,-53.334001,28.623329,-95.281241
3100,25.000000,193281,113,8,-180,-1623,1857,938,-87.200000,-155.400000,-16.500000,-51.618382,37.617600,22,False,True,True,False,True,False,False,False,1970-01-01 00:51:40,3.100000,-5796.830300,2.638640,212.680512,0.000000,25.000000,7.350000,-100,63.200939,33.347872,4.049582
3200,25.000000,193281,-73,-220,-5,715,-555,861,-119.800000,-115.600000,-12.400000,-51.618382,37.617600,22,False,True,True,False,True,False,False,False,1970-01-01 00:53:20,3.200000,-5796.830300,1.249228,231.849089,0.000000,25.000000,7.350000,-100,-32.805800,-38.306857,-108.356783
3300,25.000000,193281,347,453,493,459,-663,1874,99.800000,-83.300000,-38.800000,-51.618382,37.617600,22,False,True,True,False,True,False,False,False,1970-01-01 00:55:00,3.300000,-5796.830300,2.040129,754.100126,0.000000,25.000000,7.350000,-100,-19.483203,-29.648964,52.547726
3400,25.000000,193281,-206,-45,-448,-1391,-528,-976,-97.600000,138.600000,-101.300000,-51.618382,37.617600,22,False,True,True,False,True,False,False,False,1970-01-01 00:56:40,3.400000,-5796.830300,1.779393,495.141394,0.000000,25.000000,7.350000,-100,-151.587339,43.073398,-167.677503
3500,25.000000,193281,474,-116,125,-1960,119,67,160.200000,68.300000,-82.600000,-51.618382,37.617600,22,False,True,True,False,True,False,False,False,1970-01-01 00:58:20,3.500000,-5796.830300,1.964752,503.742990,0.000000,25.000000,7.350000,-100,60.619392,44.947296,-13.751476
3600,25.000000,193281,360,335,-250,-1043,-542,-798,16.000000,14.000000,-23.100000,-51.618382,37.617600,22,False,True,True,False,True,False,False,False,1970-01-01 01:00:00,3.600000,-5796.830300,1.420710,551.656596,0.000000,25.000000,7.350000,-100,-145.815732,41.583995,42.939889
3700,25.000000,193281,-291,-326,-229,146,1277,-1651,141.900000,30.400000,167.600000,-51.618382,37.617600,22,False,True,True,False,True,False,False,False,1970-01-01 01:01:40,3.700000,-5796.830300,2.092330,493.353828,0.000000,25.000000,7.350000,-100,142.279102,-6.480478,-131.753314
3800,25.000000,193281,209,288,234,-1196,-349,249,67.800000,-67.700000,17.000000,-51.618382,37.617600,22,False,True,True,False,True,False,False,False,1970-01-01 01:03:20,3.800000,-5796.830300,1.270519,425.888483,0.000000,25.000000,7.350000,-100,-54.493394,43.829788,54.031816
3900,25.000000,193281,-499,438,183,-564,1231,1631,156.400000,-121.000000,-128.600000,-51.618382,37.617600,22,False,True,True,False,True,False,False,False,1970-01-01 01:05:00,3.900000,-5796.830300,2.119816,688.719101,0.000000,25.000000,7.350000,-100,37.043742,22.613073,138.724779
4000,25.000000,193281,58,248,-236,-984,-1769,461,37.400000,-152.600000,32.400000,-51.618382,37.617600,22,False,True,True,False,True,False,False,False,1970-01-01 01:06:40,4.000000,-5796.830300,2.076087,347.223271,0.000000,25.000000,7.350000,-100,-75.393630,25.924583,76.836768
4100,25.000000,193281,-24,341,348,-1132,-1571,-1192,53.900000,146.000000,-68.000000,-51.618382,37.617600,22,False,True,True,False,True,False,False,False,1970-01-01 01:08:20,4.100000,-5796.830300,2.273836,487.812464,0.000000,25.000000,7.350000,-100,-127.189496,30.310727,94.025909
4200,25.000000,193281,-317,210,-444,-750,-656,720,36.500000,-12.000000,-170.400000,-51.618382,37.617600,22,False,True,True,False,True,False,False,False,1970-01-01 01:10:00,4.200000,-5796.830300,1.229323,584.572493,0.000000,25.000000,7.350000,-100,-42.336999,36.968814,146.477097
4300,25.000000,193281,-470,103,-64,294,515,467,-65.800000,6.200000,97.800000,-51.618382,37.617600,22,False,True,True,False,True,False,False,False,1970-01-01 01:11:40,4.300000,-5796.830300,0.754818,485.391594,0.000000,25.000000,7.350000,-100,47.798381,-26.371096,167.639101
4400,25.000000,193281,-110,310,-44,-1933,-1735,-1646,-142.600000,15.900000,-91.100000,-51.618382,37.617600,22,False,True,True,False,True,False,False,False,1970-01-01 01:13:20,4.400000,-5796.830300,3.075066,331.867443,0.000000,25.000000,7.350000,-100,-133.492119,36.656373,109.536655
4500,25.000000,193281,306,-254,-254,338,-449,-197,-138.000000,153.800000,126.900000,-51.618382,37.617600,22,False,True,True,False,True,False,False,False,1970-01-01 01:15:00,4.500000,-5796.830300,0.595528,471.877103,0.000000,25.000000,7.350000,-100,-113.689597,-31.023649,-39.694890
4600,25.000000,193281,388,22,-114,-1211,-584,610,-98.700000,-8.900000,-122.500000,-51.618382,37.617600,22,False,True,True,False,True,False,False,False,1970-01-01 01:16:40,4.600000,-5796.830300,1.476373,404.998765,0.000000,25.000000,7.350000,-100,-43.752550,42.010385,3.245255
4700,25.000000,193281,-46,491,-240,-111,1125,569,4.500000,84.600000,-26.700000,-51.618382,37.617600,22,False,True,True,False,True,False,False,False,1970-01-01 01:18:20,4.700000,-5796.830300,1.265586,548.449633,0.000000,25.000000,7.350000,-100,63.170728,5.607889,95.352210
4800,25.000000,193281,131,108,-183,-221,-1236,1692,67.500000,39.300000,-81.200000,-51.618382,37.617600,22,False,True,True,False,True,False,False,False,1970-01-01 01:20:00,4.800000,-5796.830300,2.106989,249.627723,0.000000,25.000000,7.350000,-100,-36.147996,9.982449,39.503107
4900,25.000000,193281,-399,-143,-300,-612,-216,-756,89.900000,-21.400000,-93.200000,-51.618382,37.617600,22,False,True,True,False,True,False,False,False,1970-01-01 01:21:40,4.900000,-5796.830300,0.996361,519.278345,0.000000,25.000000,7.350000,-100,-164.054604,43.319355,-160.282524
5000,25.000000,193281,-315,-384,22,-650,-298,354,-8.600000,-114.500000,166.600000,-51.618382,37.617600,22,False,True,True,False,True,False,False,False,1970-01-01 01:23:20,5.000000,-5796.830300,0.797885,497.156917,0.000000,25.000000,7.350000,-100,-40.090938,42.271486,-129.362457
5100,25.000000,193281,96,-147,492,-74,-382,-545,-128.100000,-28.500000,75.100000,-51.618382,37.617600,22,False,True,True,False,True,False,False,False,1970-01-01 01:25:00,5.100000,-5796.830300,0.669645,522.387787,0.000000,25.000000,7.350000,-100,-144.972717,10.768016,-56.853004
5200,25.000000,193281,-201,-87,339,594,-1305,-554,-120.600000,-178.800000,-154.900000,-51.618382,37.617600,22,False,True,True,False,True,False,False,False,1970-01-01 01:26:40,5.200000,-5796.830300,1.537133,403.597572,0.000000,25.000000,7.350000,-100,-113.002246,-22.503044,-156.595310
5300,25.000000,193281,-37,476,-8,-1852,1123,41,-29.900000,89.000000,93.000000,-51.618382,37.617600,22,False,True,True,False,True,False,False,False,1970-01-01 01:28:20,5.300000,-5796.830300,2.166267,477.502880,0.000000,25.000000,7.350000,-100,87.909097,40.533090,94.444726
5400,25.000000,193281,402,-311,-142,1605,-1499,-102,-44.900000,-87.700000,-23.000000,-51.618382,37.617600,22,False,True,True,False,True,False,False,False,1970-01-01 01:30:00,5.400000,-5796.830300,2.198506,527.720570,0.000000,25.000000,7.350000,-100,-93.892712,-36.160384,-37.726677
5500,25.000000,193281,-281,307,-497,-1719,900,-493,95.900000,87.900000,37.100000,-51.618382,37.617600,22,False,True,True,False,True,False,False,False,1970-01-01 01:31:40,5.500000,-5796.830300,2.002001,648.243010,0.000000,25.000000,7.350000,-100,118.712949,41.538449,132.468162
5600,25.000000,193281,94,84,-406,104,1028,-690,141.900000,-117.300000,131.600000,-51.618382,37.617600,22,False,True,True,False,True,False,False,False,1970-01-01 01:33:20,5.600000,-5796.830300,1.242457,425.121159,0.000000,25.000000,7.350000,-100,123.869758,-5.747665,41.784516
5700,25.000000,193281,-402,-77,54,1059,-816,-514,-163.500000,124.800000,2.400000,-51.618382,37.617600,22,False,True,True,False,True,False,False,False,1970-01-01 01:35:00,5.700000,-5796.830300,1.432317,412.854696,0.000000,25.000000,7.350000,-100,-122.206906,-38.383562,-169.156769
5800,25.000000,193281,344,-254,-195,1060,128,1811,-34.800000,41.000000,-82.300000,-51.618382,37.617600,22,False,True,True,False,True,False,False,False,1970-01-01 01:36:40,5.800000,-5796.830300,2.102309,469.975531,0.000000,25.000000,7.350000,-100,4.042896,-44.792642,-36.441125
5900,25.000000,193281,406,443,-411,1957,905,-207,95.900000,27.600000,95.800000,-51.618382,37.617600,22,False,True,True,False,True,False,False,False,1970-01-01 01:38:20,5.900000,-5796.830300,2.166039,728.015110,0.000000,25.000000,7.350000,-100,102.883597,-42.228358,47.495410
6000,25.000000,193281,486,258,-457,50,1942,98,16.300000,-62.900000,-131.500000,-51.618382,37.617600,22,False,True,True,False,True,False,False,False,1970-01-01 01:40:00,6.000000,-5796.830300,1.945114,715.268481,0.000000,25.000000,7.350000,-100,87.111108,-1.474360,27.962232
6100,25.000000,193281,200,-258,156,-1786,1282,121,-68.400000,164.900000,164.400000,-51.618382,37.617600,22,False,True,True,False,True,False,False,False,1970-01-01 01:41:40,6.100000,-5796.830300,2.201809,361.801050,0.000000,25.000000,7.350000,-100,84.608181,39.089682,-52.217379
6200,25.000000,193281,477,-317,-307,291,641,807,172.500000,-26.200000,105.600000,-51.618382,37.617600,22,False,True,True,False,True,False,False,False,1970-01-01 01:43:20,6.200000,-5796.830300,1.070893,649.820745,0.000000,25.000000,7.350000,-100,38.460112,-22.458968,-33.606829
6300,25.000000,193281,-161,-218,-410,-319,134,-774,38.400000,86.500000,55.600000,-51.618382,37.617600,22,False,True,True,False,True,False,False,False,1970-01-01 01:45:00,6.300000,-5796.830300,0.847817,491.472278,0.000000,25.000000,7.350000,-100,170.177935,42.674863,-126.447058
6400,25.000000,193281,-304,-433,-165,1091,-1640,-1280,153.300000,22.900000,68.800000,-51.618382,37.617600,22,False,True,True,False,True,False,False,False,1970-01-01 01:46:40,6.400000,-5796.830300,2.349102,554.193107,0.000000,25.000000,7.350000,-100,-127.971604,-28.981184,-125.071869
6500,25.000000,193281,-328,26,66,-172,-727,1049,49.100000,-18.700000,42.000000,-51.618382,37.617600,22,False,True,True,False,True,False,False,False,1970-01-01 01:48:20,6.500000,-5796.830300,1.287833,335.583075,0.000000,25.000000,7.350000,-100,-34.723546,12.965437,175.467738
6600,25.000000,193281,7,110,135,1823,-600,-821,-177.100000,121.000000,138.600000,-51.618382,37.617600,22,False,True,True,False,True,False,False,False,1970-01-01 01:50:00,6.600000,-5796.830300,2.087431,174.281382,0.000000,25.000000,7.350000,-100,-143.840065,-43.527432,86.358815
6700,25.000000,193281,-413,-173,18,869,-1051,-967,-86.400000,87.100000,-172.000000,-51.618382,37.617600,22,False,True,True,False,True,False,False,False,1970-01-01 01:51:40,6.700000,-5796.830300,1.671781,448.131677,0.000000,25.000000,7.350000,-100,-132.616418,-32.506203,-157.271863
6800,25.000000,193281,287,-113,-337,-915,-89,-848,-6.800000,38.800000,134.400000,-51.618382,37.617600,22,False,True,True,False,True,False,False,False,1970-01-01 01:53:20,6.800000,-5796.830300,1.250700,456.844613,0.000000,25.000000,7.350000,-100,-174.008580,44.865118,-21.490960
6900,25.000000,193281,-439,271,-37,526,-1909,-1068,44.100000,53.600000,112.300000,-51.618382,37.617600,22,False,True,True,False,True,False,False,False,1970-01-01 01:55:00,6.900000,-5796.830300,2.249796,517.233990,0.000000,25.000000,7.350000,-100,-119.225059,-14.876361,148.312466
7000,25.000000,193281,6,-434,-425,1482,1184,-324,151.100000,65.500000,80.100000,-51.618382,37.617600,22,False,True,True,False,True,False,False,False,1970-01-01 01:56:40,7.000000,-5796.830300,1.924359,607.467695,0.000000,25.000000,7.350000,-100,105.304243,-37.999803,-89.207943
7100,25.000000,193281,-327,-133,407,1183,787,-1128,-57.900000,-69.500000,-80.800000,-51.618382,37.617600,22,False,True,True,False,True,False,False,False,1970-01-01 01:58:20,7.100000,-5796.830300,1.814178,538.764327,0.000000,25.000000,7.350000,-100,145.096710,-39.780470,-157.867056
7200,25.000000,193281,-375,71,-247,-1666,-1668,-1127,159.200000,140.000000,-15.900000,-51.618382,37.617600,22,False,True,True,False,True,False,False,False,1970-01-01 02:00:00,7.200000,-5796.830300,2.613027,454.615222,0.000000,25.000000,7.350000,-100,-124.045300,35.248179,169.278904
7300,25.000000,193281,479,390,-85,-1104,826,-827,-66.800000,151.500000,102.100000,-51.618382,37.617600,22,False,True,True,False,True,False,False,False,1970-01-01 02:01:40,7.300000,-5796.830300,1.607800,623.511026,0.000000,25.000000,7.350000,-100,135.034662,38.684106,39.152351
7400,25.000000,193281,453,-288,-14,-1367,1440,-1416,-19.400000,27.400000,-14.500000,-51.618382,37.617600,22,False,True,True,False,True,False,False,False,1970-01-01 02:03:20,7.400000,-5796.830300,2.438718,536.981378,0.000000,25.000000,7.350000,-100,134.518534,34.546816,-32.446633
7500,25.000000,193281,-443,-450,55,-563,1748,-896,-136.700000,-34.400000,-3.800000,-51.618382,37.617600,22,False,True,True,False,True,False,False,False,1970-01-01 02:05:00,7.500000,-5796.830300,2.043352,633.856451,0.000000,25.000000,7.350000,-100,117.139033,17.044135,-134.550882
7600,25.000000,193281,450,290,-474,-1055,-1211,-516,-55.500000,-129.100000,171.700000,-51.618382,37.617600,22,False,True,True,False,True,False,False,False,1970-01-01 02:06:40,7.600000,-5796.830300,1.686951,715.035663,0.000000,25.000000,7.350000,-100,-113.078570,33.299795,32.799531
7700,25.000000,193281,-314,-298,381,-494,749,1876,-34.300000,68.800000,96.500000,-51.618382,37.617600,22,False,True,True,False,True,False,False,False,1970-01-01 02:08:20,7.700000,-5796.830300,2.079522,576.681021,0.000000,25.000000,7.350000,-100,21.764540,28.836223,-136.497588
7800,25.000000,193281,-177,-357,-52,-891,1767,439,-25.100000,-71.100000,-63.000000,-51.618382,37.617600,22,False,True,True,False,True,False,False,False,1970-01-01 02:10:00,7.800000,-5796.830300,2.027040,401.848230,0.000000,25.000000,7.350000,-100,76.047712,24.239321,-116.372137
7900,25.000000,193281,-236,-5,-424,-1971,1019,-369,-51.600000,147.400000,86.400000,-51.618382,37.617600,22,False,True,True,False,True,False,False,False,1970-01-01 02:11:40,7.900000,-5796.830300,2.249303,485.280331,0.000000,25.000000,7.350000,-100,109.906321,41.614891,-178.786288
8000,25.000000,193281,330,34,311,1886,1216,1008,-58.500000,-141.000000,12.500000,-51.618382,37.617600,22,False,True,True,False,True,False,False,False,1970-01-01 02:13:20,8.000000,-5796.830300,2.460024,454.727391,0.000000,25.000000,7.350000,-100,50.343056,-40.045500,5.882446
8100,25.000000,193281,-265,-335,326,541,-1706,1885,-123.700000,-103.300000,124.300000,-51.618382,37.617600,22,False,True,True,False,True,False,False,False,1970-01-01 02:15:00,8.100000,-5796.830300,2.599296,537.332299,0.000000,25.000000,7.350000,-100,-42.146348,-16.819070,-128.345575
8200,25.000000,193281,273,-335,-461,192,163,-788,-11.200000,-166.800000,150.000000,-51.618382,37.617600,22,False,True,True,False,True,False,False,False,1970-01-01 02:16:40,8.200000,-5796.830300,0.827271,631.882109,0.000000,25.000000,7.350000,-100,168.313035,-37.319398,-50.822535
8300,25.000000,193281,-354,-72,245,-1793,-645,-1449,16.500000,158.800000,-121.400000,-51.618382,37.617600,22,False,True,True,False,True,False,False,False,1970-01-01 02:18:20,8.300000,-5796.830300,2.393841,436.491695,0.000000,25.000000,7.350000,-100,-156.004500,43.257951,-168.503437
8400,25.000000,193281,-402,-414,445,1802,-126,654,-102.600000,-54.100000,111.600000,-51.618382,37.617600,22,False,True,True,False,True,False,False,False,1970-01-01 02:20:00,8.400000,-5796.830300,1.921144,728.714622,0.000000,25.000000,7.350000,-100,-10.905022,-44.930139,-134.157476
8500,25.000000,193281,194,-262,-244,1770,822,-1028,130.700000,13.100000,-44.900000,-51.618382,37.617600,22,False,True,True,False,True,False,False,False,1970-01-01 02:21:40,8.500000,-5796.830300,2.205758,407.205108,0.000000,25.000000,7.350000,-100,141.353788,-42.206992,-53.481606
8600,25.000000,193281,-381,439,-365,-352,519,1648,150.900000,-16.300000,-1.600000,-51.618382,37.617600,22,False,True,True,False,True,False,False,False,1970-01-01 02:23:20,8.600000,-5796.830300,1.763284,686.372348,0.000000,25.000000,7.350000,-100,17.480632,29.305778,130.954110
8700,25.000000,193281,153,351,-301,-1638,-1269,990,124.800000,-41.200000,112.900000,-51.618382,37.617600,22,False,True,True,False,True,False,False,False,1970-01-01 02:25:00,8.700000,-5796.830300,2.296411,487.043119,0.000000,25.000000,7.350000,-100,-52.040717,38.327083,66.447736
8800,25.000000,193281,-457,-449,427,-396,673,-652,-127.700000,-161.400000,-42.800000,-51.618382,37.617600,22,False,True,True,False,True,False,False,False,1970-01-01 02:26:40,8.800000,-5796.830300,1.017275,769.921425,0.000000,25.000000,7.350000,-100,134.091992,26.891027,-135.505910
8900,25.000000,193281,441,129,320,531,194,-1217,1.900000,-114.200000,98.700000,-51.618382,37.617600,22,False,True,True,False,True,False,False,False,1970-01-01 02:28:20,8.900000,-5796.830300,1.341896,559.930353,0.000000,25.000000,7.350000,-100,170.942777,-43.206496,16.305096
9000,25.000000,193281,-53,201,-433,356,-1951,54,-5.200000,174.900000,10.600000,-51.618382,37.617600,22,False,True,True,False,True,False,False,False,1970-01-01 02:30:00,9.000000,-5796.830300,1.983949,480.311357,0.000000,25.000000,7.350000,-100,-88.414566,-10.176590,104.771621
9100,25.000000,193281,-204,-249,-72,-869,-1816,122,88.200000,-11.100000,118.000000,-51.618382,37.617600,22,False,True,True,False,True,False,False,False,1970-01-01 02:31:40,9.100000,-5796.830300,2.016904,329.849966,0.000000,25.000000,7.350000,-100,-86.156609,23.347386,-129.326978
9200,25.000000,193281,111,-347,-366,-1238,1733,591,-162.200000,157.600000,-96.800000,-51.618382,37.617600,22,False,True,True,False,True,False,False,False,1970-01-01 02:33:20,9.200000,-5796.830300,2.210252,516.416499,0.000000,25.000000,7.350000,-100,71.169232,30.168692,-72.261320
9300,25.000000,193281,352,-264,27,718,170,-561,171.400000,167.100000,-55.900000,-51.618382,37.617600,22,False,True,True,False,True,False,False,False,1970-01-01 02:35:00,9.300000,-5796.830300,0.926901,440.827631,0.000000,25.000000,7.350000,-100,163.141601,-44.218804,-36.869898
9400,25.000000,193281,-221,-88,-395,998,-1798,830,174.100000,-152.000000,92.100000,-51.618382,37.617600,22,False,True,True,False,True,False,False,False,1970-01-01 02:36:40,9.400000,-5796.830300,2.217591,461.096519,0.000000,25.000000,7.350000,-100,-65.220818,-25.887883,-158.288045
9500,25.000000,193281,81,283,126,49,-647,1019,-135.200000,-94.000000,-53.800000,-51.618382,37.617600,22,False,True,True,False,True,False,False,False,1970-01-01 02:38:20,9.500000,-5796.830300,1.208044,320.196814,0.000000,25.000000,7.350000,-100,-32.412943,-4.318659,74.027868
9600,25.000000,193281,-115,-397,406,1420,1380,1756,103.800000,104.000000,76.800000,-51.618382,37.617600,22,False,True,True,False,True,False,False,False,1970-01-01 02:40:00,9.600000,-5796.830300,2.646571,579.370348,0.000000,25.000000,7.350000,-100,38.162990,-35.645637,-106.154851
9700,25.000000,193281,477,23,270,303,131,-466,-67.300000,175.800000,-159.000000,-51.618382,37.617600,22,False,True,True,False,True,False,False,False,1970-01-01 02:41:40,9.700000,-5796.830300,0.571074,548.596391,0.000000,25.000000,7.350000,-100,164.298484,-42.548414,2.760551
9800,25.000000,193281,272,364,65,-1095,-1227,-1453,-100.300000,-120.700000,-157.100000,-51.618382,37.617600,22,False,True,True,False,True,False,False,False,1970-01-01 02:43:20,9.800000,-5796.830300,2.194485,459.026143,0.000000,25.000000,7.350000,-100,-139.820255,33.657046,53.230975
9900,25.000000,193281,200,466,268,-1746,-1594,-140,12.300000,80.600000,136.000000,-51.618382,37.617600,22,False,True,True,False,True,False,False,False,1970-01-01 02:45:00,9.900000,-5796.830300,2.368323,573.567782,0.000000,25.000000,7.350000,-100,-95.019372,36.446688,66.771738
10000,25.000000,193281,-284,-18,427,-1613,816,818,-60.600000,-92.200000,59.100000,-51.618382,37.617600,22,False,True,True,False,True,False,False,False,1970-01-01 02:46:40,10.000000,-5796.830300,1.984124,513.136434,0.000000,25.000000,7.350000,-100,44.929871,41.743016,-176.373428
10100,25.000000,193281,-464,482,-499,1723,-1139,-800,70.100000,-52.600000,-138.400000,-51.618382,37.617600,22,False,True,True,False,True,False,False,False,1970-01-01 02:48:20,10.100000,-5796.830300,2.214960,834.638245,0.000000,25.000000,7.350000,-100,-125.083073,-39.835002,133.909937
10200,25.000000,193281,-180,357,400,-789,1347,-1412,-9.500000,-141.600000,-40.000000,-51.618382,37.617600,22,False,True,True,False,True,False,False,False,1970-01-01 02:50:00,10.200000,-5796.830300,2.104917,565.551943,0.000000,25.000000,7.350000,-100,136.349597,26.813109,116.757318
10300,25.000000,193281,-496,-31,374,1741,1492,-334,150.100000,74.200000,170.900000,-51.618382,37.617600,22,False,True,True,False,True,False,False,False,1970-01-01 02:51:40,10.300000,-5796.830300,2.317046,621.975080,0.000000,25.000000,7.350000,-100,102.618231,-37.210063,-176.423666
10400,25.000000,193281,-24,-424,314,766,1007,592,95.900000,-84.600000,-27.500000,-51.618382,37.617600,22,False,True,True,False,True,False,False,False,1970-01-01 02:53:20,10.400000,-5796.830300,1.396878,528.155280,0.000000,25.000000,7.350000,-100,59.549377,-31.191714,-93.239700
10500,25.000000,193281,-231,-494,118,-239,723,-1952,-82.700000,-152.600000,-66.700000,-51.618382,37.617600,22,False,True,True,False,True,False,False,False,1970-01-01 02:55:00,10.500000,-5796.830300,2.095269,557.961468,0.000000,25.000000,7.350000,-100,159.675907,17.425141,-115.061324
10600,25.000000,193281,-242,-99,492,1148,407,-973,-62.500000,-79.700000,-35.900000,-51.618382,37.617600,22,False,True,True,False,True,False,False,False,1970-01-01 02:56:40,10.600000,-5796.830300,1.558936,557.161556,0.000000,25.000000,7.350000,-100,157.300738,-43.305073,-157.750976
10700,25.000000,193281,424,-120,206,-1846,-905,1546,134.700000,174.400000,-97.800000,-51.618382,37.617600,22,False,True,True,False,True,False,False,False,1970-01-01 02:58:20,10.700000,-5796.830300,2.572325,486.427795,0.000000,25.000000,7.350000,-100,-30.343922,41.920727,-15.802514
10800,25.000000,193281,135,-390,67,-401,-1794,1371,66.600000,60.900000,97.700000,-51.618382,37.617600,22,False,True,True,False,True,False,False,False,1970-01-01 03:00:00,10.800000,-5796.830300,2.293224,418.107642,0.000000,25.000000,7.350000,-100,-52.612429,12.305721,-70.906508
10900,25.000000,193281,-421,-132,-438,1573,-714,384,-46.100000,-44.800000,-125.800000,-51.618382,37.617600,22,False,True,True,False,True,False,False,False,1970-01-01 03:01:40,10.900000,-5796.830300,1.769627,621.698480,0.000000,25.000000,7.350000,-100,-61.727964,-42.320506,-162.591747
11000,25.000000,193281,-373,-349,-165,-1205,655,1612,-25.400000,174.100000,-112.700000,-51.618382,37.617600,22,False,True,True,False,True,False,False,False,1970-01-01 03:03:20,11.000000,-5796.830300,2.116505,536.800708,0.000000,25.000000,7.350000,-100,22.113262,41.302257,-136.903868
11100,25.000000,193281,-336,-322,162,-62,988,-1859,60.100000,-6.200000,-45.800000,-51.618382,37.617600,22,False,True,True,False,True,False,False,False,1970-01-01 03:05:00,11.100000,-5796.830300,2.106150,492.771752,0.000000,25.000000,7.350000,-100,152.010762,3.583745,-136.218875
11200,25.000000,193281,-474,29,441,707,-1519,-1523,74.800000,95.200000,-27.600000,-51.618382,37.617600,22,False,True,True,False,True,False,False,False,1970-01-01 03:06:40,11.200000,-5796.830300,2.264230,648.072527,0.000000,25.000000,7.350000,-100,-135.075340,-22.878304,176.498926
11300,25.000000,193281,140,-212,131,-1901,411,-483,104.700000,-94.800000,-140.600000,-51.618382,37.617600,22,False,True,True,False,True,False,False,False,1970-01-01 03:08:20,11.300000,-5796.830300,2.003999,285.840865,0.000000,25.000000,7.350000,-100,139.604487,44.345686,-56.560131
11400,25.000000,193281,-348,387,-468,-1980,1967,-950,22.100000,-133.300000,-146.200000,-51.618382,37.617600,22,False,True,True,False,True,False,False,False,1970-01-01 03:10:00,11.400000,-5796.830300,2.948218,699.926425,0.000000,25.000000,7.350000,-100,115.779102,35.353105,131.962664
11500,25.000000,193281,-206,-102,-435,203,-682,-1546,177.700000,-111.100000,123.800000,-51.618382,37.617600,22,False,True,True,False,True,False,False,False,1970-01-01 03:11:40,11.500000,-5796.830300,1.701896,492.001016,0.000000,25.000000,7.350000,-100,-156.195881,-15.922618,-153.657888
11600,25.000000,193281,-215,373,35,-18,1674,-1660,-125.800000,-168.900000,-10.700000,-51.618382,37.617600,22,False,True,True,False,True,False,False,False,1970-01-01 03:13:20,11.600000,-5796.830300,2.357584,431.947914,0.000000,25.000000,7.350000,-100,134.759407,0.616024,119.959471
11700,25.000000,193281,193,-31,-358,-595,-575,-1130,-178.000000,109.600000,-112.200000,-51.618382,37.617600,22,False,True,True,False,True,False,False,False,1970-01-01 03:15:00,11.700000,-5796.830300,1.400553,407.889691,0.000000,25.000000,7.350000,-100,-153.030752,35.719497,-9.125009
11800,25.000000,193281,152,-438,271,521,-154,504,-63.700000,-58.400000,-56.000000,-51.618382,37.617600,22,False,True,True,False,True,False,False,False,1970-01-01 03:16:40,11.800000,-5796.830300,0.741062,537.018622,0.000000,25.000000,7.350000,-100,-16.990823,-43.800540,-70.861591
11900,25.000000,193281,396,-152,235,-1867,601,-288,-3.700000,-72.800000,-160.000000,-51.618382,37.617600,22,False,True,True,False,True,False,False,False,1970-01-01 03:18:20,11.900000,-5796.830300,1.982381,484.917519,0.000000,25.000000,7.350000,-100,115.603803,43.588241,-20.998719
12000,25.000000,193281,-182,-149,131,1522,1012,-1412,-92.900000,-125.000000,-47.200000,-51.618382,37.617600,22,False,True,True,False,True,False,False,False,1970-01-01 03:20:00,12.000000,-5796.830300,2.309626,269.232242,0.000000,25.000000,7.350000,-100,144.370306,-39.784929,-140.693454
12100,25.000000,193281,-109,-297,-36,444,-1370,1134,-130.000000,143.400000,-82.000000,-51.618382,37.617600,22,False,True,True,False,True,False,False,False,1970-01-01 03:21:40,12.100000,-5796.830300,1.833028,318.411683,0.000000,25.000000,7.350000,-100,-50.384177,-17.134579,-110.153307
12200,25.000000,193281,358,-377,-89,-999,1802,-275,-19.500000,-8.300000,166.700000,-51.618382,37.617600,22,False,True,True,False,True,False,False,False,1970-01-01 03:23:20,12.200000,-5796.830300,2.078661,527.459951,0.000000,25.000000,7.350000,-100,98.676861,25.866880,-46.480786
12300,25.000000,193281,458,249,-269,-1501,-985,-249,-139.400000,17.500000,153.100000,-51.618382,37.617600,22,False,True,True,False,True,False,False,False,1970-01-01 03:25:00,12.300000,-5796.830300,1.812520,586.622536,0.000000,25.000000,7.350000,-100,-104.186698,39.897508,28.531516
12400,25.000000,193281,264,134,316,1363,40,-461,70.600000,-78.400000,107.000000,-51.618382,37.617600,22,False,True,True,False,True,False,False,False,1970-01-01 03:26:40,12.400000,-5796.830300,1.439406,433.021939,0.000000,25.000000,7.350000,-100,175.040986,-44.987669,26.911245
12500,25.000000,193281,-420,34,335,-1182,459,1921,75.400000,160.300000,-143.500000,-51.618382,37.617600,22,False,True,True,False,True,False,False,False,1970-01-01 03:28:20,12.500000,-5796.830300,2.301748,538.313106,0.000000,25.000000,7.350000,-100,13.438188,42.989795,175.371862
12600,25.000000,193281,-347,211,209,226,88,-832,11.200000,80.800000,50.800000,-51.618382,37.617600,22,False,True,True,False,True,False,False,False,1970-01-01 03:30:00,12.600000,-5796.830300,0.866628,456.739532,0.000000,25.000000,7.350000,-100,173.962317,-42.979606,148.697505
12700,25.000000,193281,453,-272,6,1548,-1667,-1825,27.500000,-146.400000,-17.400000,-51.618382,37.617600,22,False,True,True,False,True,False,False,False,1970-01-01 03:31:40,12.700000,-5796.830300,2.916474,528.421233,0.000000,25.000000,7.350000,-100,-137.590654,-34.234032,-30.982353
12800,25.000000,193281,-355,-352,-26,-1114,1639,422,-7.400000,-149.800000,-136.900000,-51.618382,37.617600,22,False,True,True,False,True,False,False,False,1970-01-01 03:33:20,12.800000,-5796.830300,2.026179,500.604634,0.000000,25.000000,7.350000,-100,75.561428,29.341672,-135.243121
12900,25.000000,193281,-63,129,219,-1081,-1867,-1805,-164.700000,86.300000,71.800000,-51.618382,37.617600,22,False,True,True,False,True,False,False,False,1970-01-01 03:35:00,12.900000,-5796.830300,2.812877,261.860650,0.000000,25.000000,7.350000,-100,-134.032680,26.614204,116.029592
13000,25.000000,193281,27,-65,-28,1657,408,1535,-137.200000,108.400000,90.700000,-51.618382,37.617600,22,False,True,True,False,True,False,False,False,1970-01-01 03:36:40,13.000000,-5796.830300,2.295286,75.749587,0.000000,25.000000,7.350000,-100,14.884943,-44.156993,-67.442753
13100,25.000000,193281,-18,-358,-121,1812,-1036,394,116.900000,-31.500000,129.200000,-51.618382,37.617600,22,False,True,True,False,True,False,False,False,1970-01-01 03:38:20,13.100000,-5796.830300,2.124118,378.323935,0.000000,25.000000,7.350000,-100,-69.177746,-40.962071,-92.878369
13200,25.000000,193281,-439,-402,409,-216,-709,802,9.900000,-76.000000,-140.000000,-51.618382,37.617600,22,False,True,True,False,True,False,False,False,1970-01-01 03:40:00,13.200000,-5796.830300,1.092035,722.222957,0.000000,25.000000,7.350000,-100,-41.477965,16.247709,-137.519117
13300,25.000000,193281,-113,127,-335,590,707,-1566,70.400000,93.100000,-56.700000,-51.618382,37.617600,22,False,True,True,False,True,False,False,False,1970-01-01 03:41:40,13.300000,-5796.830300,1.816674,375.663413,0.000000,25.000000,7.350000,-100,155.702313,-32.648431,131.661529
13400,25.000000,193281,-70,492,-450,-537,1650,1561,61.100000,121.700000,106.900000,-51.618382,37.617600,22,False,True,True,False,True,False,False,False,1970-01-01 03:43:20,13.400000,-5796.830300,2.334007,670.420763,0.000000,25.000000,7.350000,-100,46.587673,17.196093,98.097492
13500,25.000000,193281,27,202,176,-868,-1708,-1716,154.400000,152.000000,59.000000,-51.618382,37.617600,22,False,True,True,False,True,False,False,False,1970-01-01 03:45:00,13.500000,-5796.830300,2.572031,269.274952,0.000000,25.000000,7.350000,-100,-135.133868,24.372896,82.386778
13600,25.000000,193281,43,277,-180,771,1917,1484,5.400000,58.400000,-153.100000,-51.618382,37.617600,22,False,True,True,False,True,False,False,False,1970-01-01 03:46:40,13.600000,-5796.830300,2.543931,333.133607,0.000000,25.000000,7.350000,-100,52.255606,-20.462674,81.176138
13700,25.000000,193281,205,-144,421,552,852,1355,79.000000,-96.100000,161.200000,-51.618382,37.617600,22,False,True,True,False,True,False,False,False,1970-01-01 03:48:20,13.700000,-5796.830300,1.693113,489.899990,0.000000,25.000000,7.350000,-100,32.160954,-28.534752,-35.085702
13800,25.000000,193281,39,-37,281,12,-823,767,-163.800000,5.100000,-14.000000,-51.618382,37.617600,22,False,True,True,False,True,False,False,False,1970-01-01 03:50:00,13.800000,-5796.830300,1.125061,286.096138,0.000000,25.000000,7.350000,-100,-47.017131,-0.835270,-43.492564
13900,25.000000,193281,79,-306,-347,296,-406,991,-147.500000,2.200000,80.800000,-51.618382,37.617600,22,False,True,True,False,True,False,False,False,1970-01-01 03:51:40,13.900000,-5796.830300,1.111095,469.346354,0.000000,25.000000,7.350000,-100,-22.278284,-30.503105,-75.524043
14000,25.000000,193281,349,-462,147,-1818,-81,-1093,32.500000,-159.400000,-92.500000,-51.618382,37.617600,22,False,True,True,False,True,False,False,False,1970-01-01 03:53:20,14.000000,-5796.830300,2.122813,597.372581,0.000000,25.000000,7.350000,-100,-175.761674,44.971594,-52.932190
14100,25.000000,193281,-112,230,138,1335,292,1919,138.900000,62.900000,-60.900000,-51.618382,37.617600,22,False,True,True,False,True,False,False,False,1970-01-01 03:55:00,14.100000,-5796.830300,2.355854,290.668196,0.000000,25.000000,7.350000,-100,8.651907,-44.330672,115.964069
14200,25.000000,193281,-449,-170,-444,-967,-284,-743,106.200000,109.900000,41.800000,-51.618382,37.617600,22,False,True,True,False,True,False,False,False,1970-01-01 03:56:40,14.200000,-5796.830300,1.252116,653.939600,0.000000,25.000000,7.350000,-100,-159.081435,43.815233,-159.262374
14300,25.000000,193281,-416,-429,-378,1397,1580,-538,-108.800000,-26.100000,113.700000,-51.618382,37.617600,22,False,True,True,False,True,False,False,False,1970-01-01 03:58:20,14.300000,-5796.830300,2.176569,707.093346,0.000000,25.000000,7.350000,-100,108.804034,-33.520081,-134.118596
14400,25.000000,193281,392,363,35,1893,1161,-1960,72.600000,-81.200000,-28.000000,-51.618382,37.617600,22,False,True,True,False,True,False,False,False,1970-01-01 04:00:00,14.400000,-5796.830300,2.961920,535.404520,0.000000,25.000000,7.350000,-100,149.359750,-40.445796,42.800316
14500,25.000000,193281,-482,296,78,967,-1045,1300,160.200000,-1.500000,170.100000,-51.618382,37.617600,22,False,True,True,False,True,False,False,False,1970-01-01 04:01:40,14.500000,-5796.830300,1.927982,570.985114,0.000000,25.000000,7.350000,-100,-38.793927,-34.183716,148.445586
14600,25.000000,193281,-432,459,-11,-1799,-419,-124,-101.700000,114.300000,-149.200000,-51.618382,37.617600,22,False,True,True,False,True,False,False,False,1970-01-01 04:03:20,14.600000,-5796.830300,1.851307,630.417322,0.000000,25.000000,7.350000,-100,-106.485736,44.243417,133.264295
14700,25.000000,193281,36,148,458,-149,-1009,360,1.900000,10.300000,-42.400000,-51.618382,37.617600,22,False,True,True,False,True,False,False,False,1970-01-01 04:05:00,14.700000,-5796.830300,1.081611,482.663444,0.000000,25.000000,7.350000,-100,-70.364164,8.311360,76.328693
14800,25.000000,193281,267,292,-183,1001,-1408,-1713,-2.300000,-95.800000,-117.000000,-51.618382,37.617600,22,False,True,True,False,True,False,False,False,1970-01-01 04:06:40,14.800000,-5796.830300,2.432865,435.938069,0.000000,25.000000,7.350000,-100,-140.581512,-30.089281,47.560717
14900,25.000000,193281,185,21,-257,1043,-743,1548,-56.600000,-168.600000,21.300000,-51.618382,37.617600,22,False,True,True,False,True,False,False,False,1970-01-01 04:08:20,14.900000,-5796.830300,2.009030,317.356267,0.000000,25.000000,7.350000,-100,-25.639803,-39.161834,6.476125
15000,25.000000,193281,368,379,-181,1682,-860,782,-17.200000,-119.600000,-159.000000,-51.618382,37.617600,22,False,True,True,False,True,False,False,False,1970-01-01 04:10:00,15.000000,-5796.830300,2.044565,558.413825,0.000000,25.000000,7.350000,-100,-47.719680,-41.680844,45.843652
15100,25.000000,193281,446,339,163,-413,-818,1348,44.100000,-174.700000,48.500000,-51.618382,37.617600,22,False,True,True,False,True,False,False,False,1970-01-01 04:11:40,15.100000,-5796.830300,1.629968,583.443228,0.000000,25.000000,7.350000,-100,-31.250420,24.261200,37.238091
15200,25.000000,193281,179,-433,152,1017,-485,1707,92.600000,33.000000,67.100000,-51.618382,37.617600,22,False,True,True,False,True,False,False,False,1970-01-01 04:13:20,15.200000,-5796.830300,2.045327,492.578928,0.000000,25.000000,7.350000,-100,-15.861131,-42.069861,-67.540047
15300,25.000000,193281,-270,-23,-149,220,-707,-434,-120.300000,133.100000,-29.300000,-51.618382,37.617600,22,False,True,True,False,True,False,False,False,1970-01-01 04:15:00,15.300000,-5796.830300,0.858257,309.241006,0.000000,25.000000,7.350000,-100,-121.544157,-16.547805,-175.131003
15400,25.000000,193281,-333,-103,-273,-1612,1719,1404,-123.000000,137.900000,-178.500000,-51.618382,37.617600,22,False,True,True,False,True,False,False,False,1970-01-01 04:16:40,15.400000,-5796.830300,2.743122,442.749365,0.000000,25.000000,7.350000,-100,50.759634,34.373687,-162.812675
15500,25.000000,193281,170,-91,-477,866,1599,-635,-93.900000,-162.100000,42.500000,-51.618382,37.617600,22,False,True,True,False,True,False,False,False,1970-01-01 04:18:20,15.500000,-5796.830300,1.926131,514.499757,0.000000,25.000000,7.350000,-100,111.659175,-25.465191,-28.159881
15600,25.000000,193281,203,448,481,-1754,140,1857,-173.600000,123.600000,36.600000,-51.618382,37.617600,22,False,True,True,False,True,False,False,False,1970-01-01 04:20:00,15.600000,-5796.830300,2.558235,687.949126,0.000000,25.000000,7.350000,-100,4.311397,44.909034,65.623531
15700,25.000000,193281,-473,-379,151,-479,809,1965,-154.900000,151.000000,-91.000000,-51.618382,37.617600,22,False,True,True,False,True,False,False,False,1970-01-01 04:21:40,15.700000,-5796.830300,2.178336,624.636694,0.000000,25.000000,7.350000,-100,22.377202,26.998007,-141.295902
15800,25.000000,193281,251,189,139,-1474,112,399,-104.700000,46.900000,-74.700000,-51.618382,37.617600,22,False,True,True,False,True,False,False,False,1970-01-01 04:23:20,15.800000,-5796.830300,1.531150,343.573864,0.000000,25.000000,7.350000,-100,15.679524,44.917538,36.979310
15900,25.000000,193281,16,-221,-101,-157,-1443,1398,114.500000,60.400000,18.600000,-51.618382,37.617600,22,False,True,True,False,True,False,False,False,1970-01-01 04:25:00,15.900000,-5796.830300,2.015267,243.511807,0.000000,25.000000,7.350000,-100,-45.907460,6.173272,-85.859114
16000,25.000000,193281,-256,392,409,-91,1086,261,-170.100000,34.800000,20.900000,-51.618382,37.617600,22,False,True,True,False,True,False,False,False,1970-01-01 04:26:40,16.000000,-5796.830300,1.120624,621.675961,0.000000,25.000000,7.350000,-100,76.486309,4.773188,123.146996
16100,25.000000,193281,334,345,-262,-587,551,537,-69.900000,-37.500000,-24.000000,-51.618382,37.617600,22,False,True,True,False,True,False,False,False,1970-01-01 04:28:20,16.100000,-5796.830300,0.967749,547.014625,0.000000,25.000000,7.350000,-100,45.737221,36.096201,45.928127
16200,25.000000,193281,-384,373,-318,-600,1108,-1200,157.100000,-101.900000,4.900000,-51.618382,37.617600,22,False,True,True,False,True,False,False,False,1970-01-01 04:30:00,16.200000,-5796.830300,1.740018,622.662830,0.000000,25.000000,7.350000,-100,137.282679,25.462897,135.832509
16300,25.000000,193281,-83,415,-463,-599,158,-936,146.800000,-151.600000,-73.900000,-51.618382,37.617600,22,False,True,True,False,True,False,False,False,1970-01-01 04:31:40,16.300000,-5796.830300,1.122435,627.282233,0.000000,25.000000,7.350000,-100,170.418601,44.036718,101.309932
16400,25.000000,193281,433,470,-175,-1480,-1186,-28,64.200000,95.300000,-110.300000,-51.618382,37.617600,22,False,True,True,False,True,False,False,False,1970-01-01 04:33:20,16.400000,-5796.830300,1.896781,662.581316,0.000000,25.000000,7.350000,-100,-91.352432,37.966844,47.346355
16500,25.000000,193281,88,-243,-67,1195,-211,-693,-170.600000,179.200000,-174.100000,-51.618382,37.617600,22,False,True,True,False,True,False,False,False,1970-01-01 04:35:00,16.500000,-5796.830300,1.397424,266.986891,0.000000,25.000000,7.350000,-100,-163.065907,-44.560265,-70.092656
16600,25.000000,193281,-286,371,-96,-92,1787,-32,-146.200000,-156.800000,179.400000,-51.618382,37.617600,22,False,True,True,False,True,False,False,False,1970-01-01 04:36:40,16.600000,-5796.830300,1.789653,478.176746,0.000000,25.000000,7.350000,-100,91.025892,2.943262,127.628252
16700,25.000000,193281,136,-286,-206,1400,1491,-1964,-83.200000,-89.300000,-22.000000,-51.618382,37.617600,22,False,True,True,False,True,False,False,False,1970-01-01 04:38:20,16.700000,-5796.830300,2.835556,377.793594,0.000000,25.000000,7.350000,-100,142.795505,-34.392037,-64.567769
16800,25.000000,193281,62,229,-474,1715,-989,-1482,29.400000,-13.800000,-22.800000,-51.618382,37.617600,22,False,True,True,False,True,False,False,False,1970-01-01 04:40:00,16.800000,-5796.830300,2.472988,530.057544,0.000000,25.000000,7.350000,-100,-146.283175,-40.901666,74.850788
16900,25.000000,193281,274,-392,-308,160,1690,-567,-132.000000,-103.300000,-157.900000,-51.618382,37.617600,22,False,True,True,False,True,False,False,False,1970-01-01 04:41:40,16.900000,-5796.830300,1.789746,568.862022,0.000000,25.000000,7.350000,-100,108.546755,-5.384398,-55.047237
17000,25.000000,193281,-271,-145,-107,422,-805,1344,131.300000,60.100000,119.500000,-51.618382,37.617600,22,False,True,True,False,True,False,False,False,1970-01-01 04:43:20,17.000000,-5796.830300,1.622481,325.445848,0.000000,25.000000,7.350000,-100,-30.919852,-24.905195,-151.850753
17100,25.000000,193281,-456,183,-84,-361,-913,-1899,-45.500000,-162.800000,72.200000,-51.618382,37.617600,22,False,True,True,False,True,False,False,False,1970-01-01 04:45:00,17.100000,-5796.830300,2.137777,498.478686,0.000000,25.000000,7.350000,-100,-154.322713,20.188468,158.133629
17200,25.000000,193281,-266,-224,-138,1402,-1067,1429,73.900000,129.700000,12.100000,-51.618382,37.617600,22,False,True,True,False,True,False,False,False,1970-01-01 04:46:40,17.200000,-5796.830300,2.268509,374.133666,0.000000,25.000000,7.350000,-100,-36.747814,-38.511278,-139.899092
17300,25.000000,193281,482,-363,-451,-1965,-829,-620,88.600000,36.600000,-169.000000,-51.618382,37.617600,22,False,True,True,False,True,False,False,False,1970-01-01 04:48:20,17.300000,-5796.830300,2.221006,753.321976,0.000000,25.000000,7.350000,-100,-126.792411,42.656277,-36.983843
17400,25.000000,193281,-408,-32,81,-277,1859,-1518,-2.600000,6.200000,-53.000000,-51.618382,37.617600,22,False,True,True,False,True,False,False,False,1970-01-01 04:50:00,17.400000,-5796.830300,2.415975,417.191802,0.000000,25.000000,7.350000,-100,129.233977,8.383772,-175.515394
17500,25.000000,193281,34,216,19,-299,-260,-1724,13.900000,-24.300000,177.300000,-51.618382,37.617600,22,False,True,True,False,True,False,False,False,1970-01-01 04:51:40,17.500000,-5796.830300,1.768948,219.483485,0.000000,25.000000,7.350000,-100,-171.423736,37.038406,81.054618
17600,25.000000,193281,-401,-296,65,1634,-1384,1784,96.900000,165.500000,28.700000,-51.618382,37.617600,22,False,True,True,False,True,False,False,False,1970-01-01 04:53:20,17.600000,-5796.830300,2.787125,502.635056,0.000000,25.000000,7.350000,-100,-37.803765,-37.346070,-143.566940
17700,25.000000,193281,425,317,156,-1770,-1315,868,-37.400000,-32.800000,79.800000,-51.618382,37.617600,22,False,True,True,False,True,False,False,False,1970-01-01 04:55:00,17.700000,-5796.830300,2.369715,552.675312,0.000000,25.000000,7.350000,-100,-56.572154,38.754460,36.718608
17800,25.000000,193281,-316,-163,498,1006,-1855,576,-118.500000,-88.400000,134.400000,-51.618382,37.617600,22,False,True,True,False,True,False,False,False,1970-01-01 04:56:40,17.800000,-5796.830300,2.187427,611.906039,0.000000,25.000000,7.350000,-100,-72.749797,-25.488342,-152.714285
17900,25.000000,193281,-304,420,-127,632,-1161,-1852,15.900000,22.300000,-87.800000,-51.618382,37.617600,22,False,True,True,False,True,False,False,False,1970-01-01 04:58:20,17.900000,-5796.830300,2.275357,533.802398,0.000000,25.000000,7.350000,-100,-147.916818,-25.552926,125.897378
18000,25.000000,193281,253,-376,-436,34,1664,-191,-48.300000,-146.200000,-49.800000,-51.618382,37.617600,22,False,True,True,False,True,False,False,False,1970-01-01 05:00:00,18.000000,-5796.830300,1.675271,628.872801,0.000000,25.000000,7.350000,-100,96.547962,-1.170300,-56.064481
18100,25.000000,193281,160,79,23,-1687,-159,81,132.800000,42.200000,70.200000,-51.618382,37.617600,22,False,True,True,False,True,False,False,False,1970-01-01 05:01:40,18.100000,-5796.830300,1.696411,179.916647,0.000000,25.000000,7.350000,-100,-63.004162,44.873321,26.277857
18200,25.000000,193281,-53,410,9,1442,-469,-386,32.500000,92.800000,55.500000,-51.618382,37.617600,22,False,True,True,False,True,False,False,False,1970-01-01 05:03:20,18.200000,-5796.830300,1.564711,413.509371,0.000000,25.000000,7.350000,-100,-129.455327,-43.560283,97.365681
18300,25.000000,193281,112,32,-444,219,1,-1726,-98.600000,-100.800000,65.600000,-51.618382,37.617600,22,False,True,True,False,True,False,False,False,1970-01-01 05:05:00,18.300000,-5796.830300,1.739838,459.025054,0.000000,25.000000,7.350000,-100,179.966804,-44.999701,15.945396
18400,25.000000,193281,215,310,34,152,-788,-1169,-164.000000,130.300000,-82.700000,-51.618382,37.617600,22,False,True,True,False,True,False,False,False,1970-01-01 05:06:40,18.400000,-5796.830300,1.417959,378.788859,0.000000,25.000000,7.350000,-100,-146.016862,-10.724892,55.256820
18500,25.000000,193281,270,49,444,-1347,454,-1726,-83.700000,-89.800000,-154.100000,-51.618382,37.617600,22,False,True,True,False,True,False,False,False,1970-01-01 05:08:20,18.500000,-5796.830300,2.235979,521.954979,0.000000,25.000000,7.350000,-100,165.262973,43.459521,10.286171
18600,25.000000,193281,476,113,-265,963,-1985,1211,169.000000,150.200000,-79.300000,-51.618382,37.617600,22,False,True,True,False,True,False,False,False,1970-01-01 05:10:00,18.600000,-5796.830300,2.516767,556.390151,0.000000,25.000000,7.350000,-100,-58.613654,-23.580537,13.354521
18700,25.000000,193281,-268,425,174,-406,778,264,38.500000,71.100000,1.200000,-51.618382,37.617600,22,False,True,True,False,True,False,False,False,1970-01-01 05:11:40,18.700000,-5796.830300,0.916415,531.718911,0.000000,25.000000,7.350000,-100,71.256301,24.827333,122.235049
18800,25.000000,193281,-42,-162,-260,-1706,-97,119,-154.200000,-45.700000,145.700000,-51.618382,37.617600,22,False,True,True,False,True,False,False,False,1970-01-01 05:13:20,18.800000,-5796.830300,1.712894,309.205433,0.000000,25.000000,7.350000,-100,-39.184373,44.953768,-104.534455
18900,25.000000,193281,344,-349,-377,-1467,-1113,-1595,-52.800000,179.200000,-18.900000,-51.618382,37.617600,22,False,True,True,False,True,False,False,False,1970-01-01 05:15:00,18.900000,-5796.830300,2.436162,618.276637,0.000000,25.000000,7.350000,-100,-145.092448,38.543078,-45.413382
19000,25.000000,193281,295,-133,472,-546,1666,1702,-139.300000,-178.600000,-99.300000,-51.618382,37.617600,22,False,True,True,False,True,False,False,False,1970-01-01 05:16:40,19.000000,-5796.830300,2.443456,572.274410,0.000000,25.000000,7.350000,-100,44.387598,17.298284,-24.268112
19100,25.000000,193281,-232,126,-453,-249,1888,-294,76.800000,62.100000,-29.000000,-51.618382,37.617600,22,False,True,True,False,True,False,False,False,1970-01-01 05:18:20,19.100000,-5796.830300,1.926910,524.317652,0.000000,25.000000,7.350000,-100,98.851033,7.449354,151.493462
19200,25.000000,193281,-136,402,127,-877,-1355,-321,149.500000,-172.100000,119.600000,-51.618382,37.617600,22,False,True,True,False,True,False,False,False,1970-01-01 05:20:00,19.200000,-5796.830300,1.645659,442.977426,0.000000,25.000000,7.350000,-100,-103.327692,28.517623,108.691113
19300,25.000000,193281,107,420,-214,-1372,49,-1102,-169.500000,134.500000,-103.900000,-51.618382,37.617600,22,False,True,True,False,True,False,False,False,1970-01-01 05:21:40,19.300000,-5796.830300,1.760451,483.368390,0.000000,25.000000,7.350000,-100,177.454043,44.981741,75.707258
19400,25.000000,193281,-362,-450,-120,1182,992,-1150,-96.600000,-132.600000,149.300000,-51.618382,37.617600,22,False,True,True,False,True,False,False,False,1970-01-01 05:23:20,19.400000,-5796.830300,1.924497,589.867782,0.000000,25.000000,7.350000,-100,139.218659,-37.451597,-128.814745
19500,25.000000,193281,131,415,41,-1237,-250,1213,110.200000,-20.800000,164.100000,-51.618382,37.617600,22,False,True,True,False,True,False,False,False,1970-01-01 05:25:00,19.500000,-5796.830300,1.750439,437.112114,0.000000,25.000000,7.350000,-100,-11.645628,44.426607,72.481039
19600,25.000000,193281,253,-109,18,856,-1143,-1126,179.500000,31.600000,93.500000,-51.618382,37.617600,22,False,True,True,False,True,False,False,False,1970-01-01 05:26:40,19.600000,-5796.830300,1.818533,276.068832,0.000000,25.000000,7.350000,-100,-134.570732,-30.940143,-23.307829
19700,25.000000,193281,205,-333,-101,-1893,590,-357,-99.100000,92.500000,104.500000,-51.618382,37.617600,22,False,True,True,False,True,False,False,False,1970-01-01 05:28:20,19.700000,-5796.830300,2.014696,403.874981,0.000000,25.000000,7.350000,-100,121.177493,43.672535,-58.382899
19800,25.000000,193281,-93,234,258,-714,1878,638,-75.600000,111.100000,-85.100000,-51.618382,37.617600,22,False,True,True,False,True,False,False,False,1970-01-01 05:30:00,19.800000,-5796.830300,2.108014,360.512136,0.000000,25.000000,7.350000,-100,71.236189,19.563907,111.674649
19900,25.000000,193281,288,53,228,615,67,-1251,-136.300000,14.700000,70.700000,-51.618382,37.617600,22,False,True,True,False,True,False,False,False,1970-01-01 05:31:40,19.900000,-5796.830300,1.395606,371.129358,0.000000,25.000000,7.350000,-100,176.934330,-44.830997,10.427348
20000,25.000000,193281,266,-264,147,1848,-1488,1768,-97.900000,104.100000,92.100000,-51.618382,37.617600,22,False,True,True,False,True,False,False,False,1970-01-01 05:33:20,20.000000,-5796.830300,2.958897,402.568007,0.000000,25.000000,7.350000,-100,-40.084937,-37.914710,-44.783791
20100,25.000000,193281,136,337,-245,634,-1047,1428,25.400000,158.900000,-94.500000,-51.618382,37.617600,22,False,True,True,False,True,False,False,False,1970-01-01 05:35:00,20.100000,-5796.830300,1.880784,438.280732,0.000000,25.000000,7.350000,-100,-36.248619,-27.383061,68.022927
20200,25.000000,193281,398,-372,374,-1617,-1521,-1787,-153.100000,153.800000,56.200000,-51.618382,37.617600,22,False,True,True,False,True,False,False,False,1970-01-01 05:36:40,20.200000,-5796.830300,2.849824,660.805569,0.000000,25.000000,7.350000,-100,-139.597326,36.069532,-43.066072
20300,25.000000,193281,-414,-407,394,-88,-566,834,125.700000,64.500000,53.300000,-51.618382,37.617600,22,False,True,True,False,True,False,False,False,1970-01-01 05:38:20,20.300000,-5796.830300,1.011759,701.627394,0.000000,25.000000,7.350000,-100,-34.163054,8.734133,-135.488503
20400,25.000000,193281,-163,263,-293,1361,-564,1667,96.000000,-43.900000,-102.500000,-51.618382,37.617600,22,False,True,True,False,True,False,False,False,1970-01-01 05:40:00,20.400000,-5796.830300,2.224704,426.130262,0.000000,25.000000,7.350000,-100,-18.692341,-42.732315,121.789470
20500,25.000000,193281,81,-170,63,-1976,-1929,1617,-67.700000,-60.800000,-131.600000,-51.618382,37.617600,22,False,True,True,False,True,False,False,False,1970-01-01 05:41:40,20.500000,-5796.830300,3.200048,198.569887,0.000000,25.000000,7.350000,-100,-50.028304,35.586206,-64.523574
20600,25.000000,193281,174,-280,-159,-783,-847,-594,-102.400000,-118.100000,120.100000,-51.618382,37.617600,22,False,True,True,False,True,False,False,False,1970-01-01 05:43:20,20.600000,-5796.830300,1.297434,366.001366,0.000000,25.000000,7.350000,-100,-125.041929,34.169446,-58.142001
20700,25.000000,193281,47,-119,428,1479,1932,381,-89.300000,152.400000,140.900000,-51.618382,37.617600,22,False,True,True,False,True,False,False,False,1970-01-01 05:45:00,20.700000,-5796.830300,2.462768,446.714674,0.000000,25.000000,7.350000,-100,78.844134,-31.293825,-68.448063
20800,25.000000,193281,17,-242,-421,-1873,432,1548,115.000000,93.400000,104.300000,-51.618382,37.617600,22,False,True,True,False,True,False,False,False,1970-01-01 05:46:40,20.800000,-5796.830300,2.468007,485.895050,0.000000,25.000000,7.350000,-100,15.592811,44.257661,-85.981691
20900,25.000000,193281,-262,90,302,1235,1304,-925,-168.200000,87.700000,-16.900000,-51.618382,37.617600,22,False,True,True,False,True,False,False,False,1970-01-01 05:48:20,20.900000,-5796.830300,2.020214,409.814592,0.000000,25.000000,7.350000,-100,125.350206,-34.513835,161.041817
21000,25.000000,193281,-407,-48,-473,-634,266,-1709,-25.900000,-27.100000,153.200000,-51.618382,37.617600,22,False,True,True,False,True,False,False,False,1970-01-01 05:50:00,21.000000,-5796.830300,1.842116,625.845029,0.000000,25.000000,7.350000,-100,171.153094,42.680003,-173.273828
21100,25.000000,193281,475,203,45,-610,914,1433,99.500000,-95.900000,-107.700000,-51.618382,37.617600,22,False,True,True,False,True,False,False,False,1970-01-01 05:51:40,21.100000,-5796.830300,1.805820,518.516152,0.000000,25.000000,7.350000,-100,32.530657,29.035537,23.140334
21200,25.000000,193281,452,-112,67,1662,1252,-1810,110.600000,155.000000,45.100000,-51.618382,37.617600,22,False,True,True,False,True,False,False,False,1970-01-01 05:53:20,21.200000,-5796.830300,2.757870,470.464664,0.000000,25.000000,7.350000,-100,145.327898,-38.615393,-13.916877
